{
  "_comment": "Static Alamo Drafthouse cinema directory (the geo 'map' artifact). Neither upstream feed carries coordinates, so this is what makes the radius query possible AND enumerates the markets to fetch. Built once for v1 (Austin / market 0000); add rows to extend coverage. cinema_id / slug / name / timezone come from the legacy sessions feed; lat/lng are approximate building coordinates; address is the human-readable street line shown in the theater picker. This is the natural seam for adding other chains later (a second ShowtimeSource).",
  "cinemas": [
    {
      "cinema_id": "0004",
      "slug": "south-lamar",
      "name": "Alamo South Lamar",
      "address": "1120 S Lamar Blvd, Austin, TX",
      "market_id": "0000",
      "market_slug": "austin",
      "lat": 30.2516,
      "lng": -97.7686,
      "timezone": "America/Chicago"
    },
    {
      "cinema_id": "0003",
      "slug": "village",
      "name": "Alamo Village",
      "address": "2700 W Anderson Ln, Austin, TX",
      "market_id": "0000",
      "market_slug": "austin",
      "lat": 30.3637,
      "lng": -97.7385,
      "timezone": "America/Chicago"
    },
    {
      "cinema_id": "0006",
      "slug": "slaughter-lane",
      "name": "Alamo Slaughter Lane",
      "address": "5701 W Slaughter Ln, Austin, TX",
      "market_id": "0000",
      "market_slug": "austin",
      "lat": 30.1842,
      "lng": -97.8527,
      "timezone": "America/Chicago"
    },
    {
      "cinema_id": "0007",
      "slug": "lakeline",
      "name": "Alamo Lakeline",
      "address": "14028 US-183 N, Austin, TX",
      "market_id": "0000",
      "market_slug": "austin",
      "lat": 30.4660,
      "lng": -97.7965,
      "timezone": "America/Chicago"
    },
    {
      "cinema_id": "0008",
      "slug": "mueller",
      "name": "Alamo Mueller",
      "address": "1911 Aldrich St, Austin, TX",
      "market_id": "0000",
      "market_slug": "austin",
      "lat": 30.2988,
      "lng": -97.7050,
      "timezone": "America/Chicago"
    },
    {
      "cinema_id": "0701",
      "slug": "richardson",
      "name": "Alamo Richardson",
      "address": "100 S Central Expy, Richardson, TX",
      "market_id": "0700",
      "market_slug": "dfw",
      "lat": 32.9483,
      "lng": -96.7299,
      "timezone": "America/Chicago"
    },
    {
      "cinema_id": "0702",
      "slug": "cedars",
      "name": "Alamo Cedars",
      "address": "1005 S Lamar St, Dallas, TX",
      "market_id": "0700",
      "market_slug": "dfw",
      "lat": 32.7757,
      "lng": -96.7920,
      "timezone": "America/Chicago"
    },
    {
      "cinema_id": "0703",
      "slug": "las-colinas",
      "name": "Alamo Las Colinas",
      "address": "320 W Las Colinas Blvd, Irving, TX",
      "market_id": "0700",
      "market_slug": "dfw",
      "lat": 32.8709,
      "lng": -96.9447,
      "timezone": "America/Chicago"
    },
    {
      "cinema_id": "0706",
      "slug": "lake-highlands",
      "name": "Alamo Lake Highlands",
      "address": "6770 Abrams Rd, Dallas, TX",
      "market_id": "0700",
      "market_slug": "dfw",
      "lat": 32.8717,
      "lng": -96.7166,
      "timezone": "America/Chicago"
    },
    {
      "cinema_id": "0707",
      "slug": "denton",
      "name": "Alamo Denton",
      "address": "2825 Wind River Ln, Denton, TX",
      "market_id": "0700",
      "market_slug": "dfw",
      "lat": 33.1899,
      "lng": -97.0997,
      "timezone": "America/Chicago"
    }
  ]
}
